[
  {
    "name": "Tucson, AZ",
    "type": "lived",
    "lat": 32.2226,
    "lng": -110.9747
  },
  {
    "name": "Indianapolis, IN",
    "type": "lived",
    "lat": 39.768611,
    "lng": -86.158056
  },
  {
    "name": "Vancouver, BC",
    "type": "visited",
    "lat": 49.260833,
    "lng": -123.113889
  },
  {
    "name": "Chicago, IL",
    "type": "visited",
    "lat": 41.881944,
    "lng": -87.627778
  },
  {
    "name": "Baltimore, MD",
    "type": "visited",
    "lat": 39.289444,
    "lng": -76.615278
  },
  {
    "name": "Boston, MA",
    "type": "visited",
    "lat": 42.360278,
    "lng": -71.05829
  },
  {
    "name": "Anaheim, CA",
    "type": "visited",
    "lat": 33.836111,
    "lng": -117.889722
  },
  {
    "name": "Seattle, WA",
    "type": "visited",
    "lat": 47.603889,
    "lng": -122.33
  },
  {
    "name": "Eugene, OR",
    "type": "lived",
    "lat": 44.056389,
    "lng": -123.1175
  },
  {
    "name": "Mitchell, SD",
    "type": "lived",
    "lat": 43.729444,
    "lng": -98.033611
  },
  {
    "name": "Scottsdale, AZ",
    "type": "lived",
    "lat": 33.493056,
    "lng": -111.926111
  },
  {
    "name": "Austin, TX",
    "type": "lived",
    "lat": 30.266666,
    "lng": -97.733330
  },
  {
    "name": "San Francisco, CA",
    "type": "visited",
    "lat": 37.733795,
    "lng": -122.446747
  },
  {
    "name": "Redding, CA",
    "type": "visited",
    "lat": 40.586540,
    "lng": -122.391678
  },
  {
    "name": "Palm Springs, CA",
    "type": "visited",
    "lat": 33.830517,
    "lng": -116.545601
  },
  {
    "name": "St. Louis, MO",
    "type": "visited",
    "lat": 38.631966,
    "lng": -90.242876
  },
  {
    "name": "Chapel Hill, NC",
    "type": "visited",
    "lat": 35.912586,
    "lng": -79.004618
  },
  {
    "name": "Tallahassee, FL",
    "type": "visited",
    "lat": 30.438083,
    "lng": -84.280933
  },
  {
    "name": "Santa Fe, NM",
    "type": "visited",
    "lat": 35.687610,
    "lng": -105.938456
  },
  {
    "name": "Big Sky, MT",
    "type": "visited",
    "lat": 45.258964,
    "lng": -111.308725
  },
  {
    "name": "Bozeman, MT",
    "type": "visited",
    "lat": 45.676998,
    "lng": -111.042933
  },
  {
    "name": "Las Vegas, NV",
    "type": "visited",
    "lat": 36.1674263,
    "lng": -115.1484131
  },
  {
    "name": "San Antonio, TX",
    "type": "visited",
    "lat": 29.4246002,
    "lng": -98.4951405
  },
  {
    "name": "Minneapolis, MN",
    "type": "visited",
    "lat": 44.9772995,
    "lng": -93.2654692
  },
  {
    "name": "Crosby, ND",
    "type": "visited",
    "lat": 48.9142,
    "lng": -103.29491
  },
  {
    "name": "Boise, ID",
    "type": "visited",
    "lat": 43.6166163,
    "lng": -116.200886
  },
  {
    "name": "Carlsbad, NM",
    "type": "visited",
    "lat": 32.4257456,
    "lng": -104.237612
  },
  {
    "name": "Dallas, TX",
    "type": "visited",
    "lat": 32.7762719,
    "lng": -96.7968559
  },
  {
    "name": "Detroit, MI",
    "type": "visited",
    "lat": 42.3315509,
    "lng": -83.0466403
  },
  {
    "name": "Nashville, TN",
    "type": "lived",
    "lat": 36.1961664,
    "lng": -86.6224959
  },
  {
    "name": "Maumee, OH",
    "type": "visited",
    "lat": 41.5628294,
    "lng": -83.6538244
  }
]